[{"name":"Berlin","zipcode":"12439","latitude":52.517778,"longitude":13.405556,"region1":"Berlin","region2":"Berlin"},{"name":"Berlin","zipcode":"10781","latitude":52.517778,"longitude":13.405556,"region1":"Berlin","region2":"Berlin"},{"name":"Berlin","zipcode":"12165","latitude":52.517778,"longitude":13.405556,"region1":"Berlin","region2":"Berlin"},{"name":"Berlin","zipcode":"12161","latitude":52.517778,"longitude":13.405556,"region1":"Berlin","region2":"Berlin"},{"name":"Berlin","zipcode":"12247","latitude":52.517778,"longitude":13.405556,"region1":"Berlin","region2":"Berlin"},{"name":"Berlin","zipcode":"10709","latitude":52.517778,"longitude":13.405556,"region1":"Berlin","region2":"Berlin"},{"name":"Berlin","zipcode":"13057","latitude":52.517778,"longitude":13.405556,"region1":"Berlin","region2":"Berlin"},{"name":"Berlin","zipcode":"14053","latitude":52.517778,"longitude":13.405556,"region1":"Berlin","region2":"Berlin"},{"name":"Berlin","zipcode":"13156","latitude":52.517778,"longitude":13.405556,"region1":"Berlin","region2":"Berlin"},{"name":"Berlin","zipcode":"10245","latitude":52.517778,"longitude":13.405556,"region1":"Berlin","region2":"Berlin"},{"name":"Berlin","zipcode":"12057","latitude":52.517778,"longitude":13.405556,"region1":"Berlin","region2":"Berlin"},{"name":"Berlin","zipcode":"12099","latitude":52.517778,"longitude":13.405556,"region1":"Berlin","region2":"Berlin"},{"name":"Berlin","zipcode":"10999","latitude":52.517778,"longitude":13.405556,"region1":"Berlin","region2":"Berlin"},{"name":"Berlin","zipcode":"13159","latitude":52.517778,"longitude":13.405556,"region1":"Berlin","region2":"Berlin"},{"name":"Berlin","zipcode":"12587","latitude":52.517778,"longitude":13.405556,"region1":"Berlin","region2":"Berlin"},{"name":"Berlin","zipcode":"12051","latitude":52.517778,"longitude":13.405556,"region1":"Berlin","region2":"Berlin"},{"name":"Berlin","zipcode":"10119","latitude":52.517778,"longitude":13.405556,"region1":"Berlin","region2":"Berlin"},{"name":"Berlin","zipcode":"10435","latitude":52.517778,"longitude":13.405556,"region1":"Berlin","region2":"Berlin"},{"name":"Berlin","zipcode":"13509","latitude":52.517778,"longitude":13.405556,"region1":"Berlin","region2":"Berlin"},{"name":"Berlin","zipcode":"13347","latitude":52.517778,"longitude":13.405556,"region1":"Berlin","region2":"Berlin"},{"name":"Berlin","zipcode":"10317","latitude":52.517778,"longitude":13.405556,"region1":"Berlin","region2":"Berlin"},{"name":"Berlin","zipcode":"13127","latitude":52.517778,"longitude":13.405556,"region1":"Berlin","region2":"Berlin"},{"name":"Berlin","zipcode":"12679","latitude":52.517778,"longitude":13.405556,"region1":"Berlin","region2":"Berlin"},{"name":"Berlin","zipcode":"14089","latitude":52.517778,"longitude":13.405556,"region1":"Berlin","region2":"Berlin"},{"name":"Berlin","zipcode":"13353","latitude":52.517778,"longitude":13.405556,"region1":"Berlin","region2":"Berlin"}]