[{"name":"Hannover","zipcode":"30179","latitude":52.374444,"longitude":9.738056,"region1":"Niedersachsen","region2":"Niedersachsen"},{"name":"Hannover","zipcode":"30167","latitude":52.374444,"longitude":9.738056,"region1":"Niedersachsen","region2":"Niedersachsen"},{"name":"Hannover","zipcode":"30629","latitude":52.374444,"longitude":9.738056,"region1":"Niedersachsen","region2":"Niedersachsen"},{"name":"Hannover","zipcode":"30625","latitude":52.374444,"longitude":9.738056,"region1":"Niedersachsen","region2":"Niedersachsen"},{"name":"Hannover","zipcode":"30627","latitude":52.374444,"longitude":9.738056,"region1":"Niedersachsen","region2":"Niedersachsen"},{"name":"Hannover","zipcode":"30451","latitude":52.374444,"longitude":9.738056,"region1":"Niedersachsen","region2":"Niedersachsen"},{"name":"Hannover","zipcode":"30169","latitude":52.374444,"longitude":9.738056,"region1":"Niedersachsen","region2":"Niedersachsen"},{"name":"Hannover","zipcode":"30521","latitude":52.374444,"longitude":9.738056,"region1":"Niedersachsen","region2":"Niedersachsen"},{"name":"Hannover","zipcode":"30657","latitude":52.374444,"longitude":9.738056,"region1":"Niedersachsen","region2":"Niedersachsen"},{"name":"Hannover","zipcode":"30161","latitude":52.374444,"longitude":9.738056,"region1":"Niedersachsen","region2":"Niedersachsen"},{"name":"Hannover","zipcode":"30457","latitude":52.374444,"longitude":9.738056,"region1":"Niedersachsen","region2":"Niedersachsen"},{"name":"Hannover","zipcode":"30171","latitude":52.374444,"longitude":9.738056,"region1":"Niedersachsen","region2":"Niedersachsen"},{"name":"Hannover","zipcode":"30519","latitude":52.374444,"longitude":9.738056,"region1":"Niedersachsen","region2":"Niedersachsen"},{"name":"Hannover","zipcode":"30453","latitude":52.374444,"longitude":9.738056,"region1":"Niedersachsen","region2":"Niedersachsen"},{"name":"Hannover","zipcode":"30459","latitude":52.374444,"longitude":9.738056,"region1":"Niedersachsen","region2":"Niedersachsen"},{"name":"Hannover","zipcode":"30659","latitude":52.374444,"longitude":9.738056,"region1":"Niedersachsen","region2":"Niedersachsen"},{"name":"Hannover","zipcode":"30175","latitude":52.374444,"longitude":9.738056,"region1":"Niedersachsen","region2":"Niedersachsen"},{"name":"Hannover","zipcode":"30165","latitude":52.374444,"longitude":9.738056,"region1":"Niedersachsen","region2":"Niedersachsen"},{"name":"Hannover","zipcode":"30173","latitude":52.374444,"longitude":9.738056,"region1":"Niedersachsen","region2":"Niedersachsen"},{"name":"Hannover","zipcode":"30539","latitude":52.374444,"longitude":9.738056,"region1":"Niedersachsen","region2":"Niedersachsen"},{"name":"Hannover","zipcode":"30419","latitude":52.374444,"longitude":9.738056,"region1":"Niedersachsen","region2":"Niedersachsen"},{"name":"Hannover","zipcode":"30559","latitude":52.374444,"longitude":9.738056,"region1":"Niedersachsen","region2":"Niedersachsen"},{"name":"Hannover","zipcode":"30159","latitude":52.374444,"longitude":9.738056,"region1":"Niedersachsen","region2":"Niedersachsen"},{"name":"Hannover","zipcode":"30177","latitude":52.374444,"longitude":9.738056,"region1":"Niedersachsen","region2":"Niedersachsen"},{"name":"Hannover","zipcode":"30163","latitude":52.374444,"longitude":9.738056,"region1":"Niedersachsen","region2":"Niedersachsen"}]